City_ID,City,Lat,Lng,Max Temp,Humidity,Cloudiness,Wind Speed,Country,Date
0,ust-nera,64.5667,143.2,16.48,94,87,5.66,RU,1712872087
1,zemetchino,53.4973,42.6163,58.53,90,100,5.91,RU,1712872088
2,invercargill,-46.4,168.35,48.02,87,100,1.99,NZ,1712872089
3,bamboo flat,11.7,92.7167,80.53,81,7,4.9,IN,1712872089
4,utrik,11.2278,169.8474,79.99,75,96,20.8,MH,1712872090
5,albany,42.6001,-73.9662,60.1,78,100,3.0,US,1712872085
6,notodden,59.5594,9.2585,48.52,83,48,3.74,NO,1712872091
7,grytviken,-54.2811,-36.5092,29.64,70,13,9.64,GS,1712872091
8,namibe,-15.1961,12.1522,72.82,72,0,5.7,AO,1712872091
9,santana,-0.0583,-51.1817,80.78,94,75,4.61,BR,1712872092
10,port-aux-francais,-49.35,70.2167,42.62,89,100,7.47,TF,1712872092
11,lata,40.1629,-8.3327,65.07,84,96,2.55,PT,1712872093
12,teotitlan,18.1319,-97.0767,80.28,24,2,10.6,MX,1712872093
13,ushuaia,-54.8,-68.3,46.06,61,0,25.32,AR,1712872094
14,edinburgh of the seven seas,-37.0676,-12.3116,65.21,95,76,16.51,SH,1712872094
15,happy valley-goose bay,53.3168,-60.3315,55.71,19,40,11.5,CA,1712872095
16,weno,7.4515,151.8468,82.35,83,100,5.75,FM,1712872095
17,tralee,52.2704,-9.7026,53.2,97,100,5.79,IE,1712872095
18,bethel,41.3712,-73.414,58.64,89,100,6.91,US,1712871833
19,hermanus,-34.4187,19.2345,55.8,72,19,17.6,ZA,1712872096
20,bilibino,68.0546,166.4372,7.92,86,100,3.4,RU,1712872097
21,waitangi,-43.9535,-176.5597,62.82,94,100,11.99,NZ,1712872097
22,neiafu,-18.65,-173.9833,83.08,83,40,6.91,TO,1712872098
23,isafjordur,66.0755,-23.124,26.94,94,100,31.18,IS,1712872098
24,tsiombe,-25.3,45.4833,68.68,87,93,4.72,MG,1712872099
25,katsuura,35.1333,140.3,58.3,87,100,13.71,JP,1712872099
26,san antonio de pale,-1.4014,5.6325,81.7,78,100,10.09,GQ,1712872100
27,chibougamau,49.9168,-74.3659,55.02,54,75,10.36,CA,1712872040
28,stanley,54.868,-1.6985,55.71,94,40,9.22,GB,1712872101
29,wamba,8.9333,8.6,85.5,22,28,4.07,NG,1712872101
30,bayanhongor,46.7167,100.1167,28.15,57,99,2.73,MN,1712872102
31,hojai,26.0,92.8667,76.35,35,100,2.57,IN,1712872102
32,petropavlovsk-kamchatsky,53.0452,158.6483,36.19,71,0,25.99,RU,1712872059
33,nemuro,43.3236,145.575,40.15,96,100,14.54,JP,1712872103
34,chonchi,-42.6128,-73.8092,61.81,69,0,1.41,CL,1712871993
35,patnanungan,14.7833,122.1833,78.49,77,82,9.73,PH,1712872104
36,langsa,4.4683,97.9683,73.26,96,45,0.76,ID,1712872104
37,balcarce,-37.8462,-58.2552,53.82,69,97,1.01,AR,1712872105
38,newman,37.3138,-121.0208,84.29,47,21,1.01,US,1712872105
39,papatowai,-46.5619,169.4708,45.77,86,100,4.92,NZ,1712872106
40,nyasvizh,53.2181,26.6725,46.4,58,78,8.05,BY,1712872099
41,port alfred,-33.5906,26.891,58.17,82,15,5.01,ZA,1712871853
42,punta arenas,-53.15,-70.9167,48.31,61,0,21.85,CL,1712871898
43,west island,-12.1568,96.8225,78.78,83,49,4.61,CC,1712872108
44,tuy hoa,13.0833,109.3,74.66,96,100,3.06,VN,1712872109
45,toliara,-23.35,43.6667,74.64,77,100,9.19,MG,1712872109
46,enoch,37.7733,-113.0244,73.15,22,0,5.01,US,1712872110
47,balkanabat,39.5108,54.3671,57.96,85,100,5.1,TM,1712872110
48,kapa'a,22.0752,-159.319,80.58,85,100,9.22,US,1712872111
49,anloga,5.7947,0.8973,84.07,78,98,13.96,GH,1712872111
50,ilulissat,69.2167,-51.1,21.22,79,100,3.44,GL,1712872112
51,ambovombe,-25.1667,46.0833,68.58,87,100,6.96,MG,1712872112
52,tual,-5.6667,132.75,83.39,71,92,6.44,ID,1712872112
53,paracuru,-3.41,-39.0306,83.1,87,96,6.69,BR,1712872113
54,santa vitoria do palmar,-33.5189,-53.3681,63.79,61,90,8.5,BR,1712872113
55,nishinoomote,30.7333,131.0,66.09,81,100,19.39,JP,1712872114
56,montepuez,-13.1256,38.9997,70.41,98,100,5.5,MZ,1712872114
57,queenstown,-31.8976,26.8753,40.73,85,0,1.1,ZA,1712871909
58,kuanda,56.3161,116.0806,20.68,91,48,1.41,RU,1712872115
59,iqaluit,63.7506,-68.5145,28.13,68,100,5.75,CA,1712872116
60,woolgoolga,-30.1106,153.2007,66.07,69,2,10.25,AU,1712872116
61,znamenskoye,57.1281,73.8282,22.69,80,54,6.15,RU,1712872117
62,bou tlelis,35.5727,-0.8996,60.69,73,0,8.14,DZ,1712872117
63,quellon,-43.1167,-73.6167,50.67,70,0,5.23,CL,1712871984
64,vallenar,-28.5708,-70.7581,73.96,41,100,5.84,CL,1712871980
65,vilyuchinsk,52.9306,158.4028,37.67,76,5,8.28,RU,1712872118
66,finote selam,10.7,37.2667,72.21,24,79,5.21,ET,1712872119
67,saldanha,-33.0117,17.9442,64.45,58,7,13.33,ZA,1712872119
68,anadyr,64.75,177.4833,5.5,77,0,8.95,RU,1712872120
69,amahai,-3.3333,128.9167,78.49,84,97,4.59,ID,1712872120
70,san francisco,37.7749,-122.4194,86.31,63,20,18.41,US,1712871927
71,kodiak,57.79,-152.4072,33.31,100,100,0.0,US,1712872121
72,thompson,55.7435,-97.8558,33.96,75,100,12.66,CA,1712872122
73,santa cruz,-17.8,-63.1667,80.65,65,75,10.36,BO,1712872122
74,lashio,22.9333,97.75,65.26,43,0,1.79,MM,1712872123
75,puerto ayora,-0.7393,-90.3518,84.16,96,48,8.99,EC,1712872123
76,hawaiian paradise park,19.5933,-154.9731,76.03,95,100,4.61,US,1712872124
77,georgetown,5.4112,100.3354,82.94,86,20,3.44,MY,1712872093
78,broome,42.2506,-75.833,63.7,87,100,13.8,US,1712872125
79,phon,15.816,102.5998,89.85,47,39,5.82,TH,1712872125
80,avarua,-21.2078,-159.775,82.45,83,75,13.8,CK,1712872126
81,dubbo,-32.25,148.6167,55.53,88,0,9.22,AU,1712872126
82,ghanzi,-21.5667,21.7833,66.76,35,35,7.85,BW,1712872126
83,tiksi,71.6872,128.8694,-16.38,95,22,12.03,RU,1712872127
84,nar'yan-mar,67.6713,53.087,35.11,100,100,17.0,RU,1712872127
85,carnarvon,-24.8667,113.6333,70.45,66,93,22.24,AU,1712872128
86,blackmans bay,-43.0167,147.3167,51.93,85,82,1.99,AU,1712872130
87,cabo san lucas,22.8909,-109.9124,83.61,41,20,12.66,MX,1712871925
88,griffith,41.5284,-87.4237,58.33,75,100,13.8,US,1712872130
89,bredasdorp,-34.5322,20.0403,57.04,71,3,9.95,ZA,1712872131
90,estevan,49.1334,-102.9842,52.14,43,75,11.5,CA,1712872131
91,gadzhiyevo,69.2551,33.3362,32.2,93,100,24.76,RU,1712872132
92,adamstown,-25.066,-130.1015,69.89,54,3,13.35,PN,1712872132
93,ribeira grande,38.5167,-28.7,60.78,93,97,4.0,PT,1712872133
94,hamilton,39.1834,-84.5333,66.15,92,75,27.0,US,1712871978
95,new norfolk,-42.7826,147.0587,53.1,84,91,2.64,AU,1712872133
96,sabang,5.8933,95.3214,85.15,73,100,14.16,ID,1712872134
97,wau,7.7029,27.9953,85.84,15,24,5.03,SS,1712872134
98,rongelap,11.1635,166.8941,80.44,80,100,20.47,MH,1712872135
99,port mathurin,-19.6833,63.4167,80.08,77,4,11.27,MU,1712872135
100,anna regina,7.2644,-58.5077,81.0,76,8,8.52,GY,1712872136
101,peace river,56.2501,-117.286,55.71,28,75,3.44,CA,1712872136
102,deqen,29.9618,90.7188,29.66,62,12,2.48,CN,1712872136
103,guilin,25.2819,110.2864,68.11,99,100,0.43,CN,1712872137
104,jaca,42.569,-0.5499,45.99,68,85,3.89,ES,1712872137
105,yoichi,43.2039,140.7703,45.46,73,100,6.93,JP,1712872138
106,turpan,42.9333,89.1667,64.8,25,0,5.77,CN,1712872138
107,kone,-21.0595,164.8658,74.12,86,100,1.1,NC,1712872139
108,lihue,21.9789,-159.3672,79.84,82,100,9.22,US,1712872139
109,afaahiti,-17.75,-149.2833,85.87,86,98,16.73,PF,1712872140
110,verkhnevilyuysk,63.4453,120.3167,-5.31,97,78,4.97,RU,1712872140
111,sijunjung,-0.6876,100.9537,71.62,94,100,1.23,ID,1712872140
112,puerto natales,-51.7236,-72.4875,46.85,61,0,12.66,CL,1712872018
113,tukrah,32.5341,20.5791,62.35,77,100,11.12,LY,1712872141
114,sioux city,42.5,-96.4003,58.44,39,75,24.16,US,1712871927
115,alice springs,-23.7,133.8833,58.21,50,3,3.44,AU,1712872049
116,tomatlan,19.9333,-105.25,87.31,36,15,8.43,MX,1712872142
117,ulsteinvik,62.3432,5.8487,50.9,82,90,15.01,NO,1712872143
118,bubaque,11.2833,-15.8333,75.6,71,0,20.56,GW,1712872143
119,bafilo,9.35,1.2667,81.61,63,100,4.74,TG,1712872144
120,st. john's,47.5649,-52.7093,38.59,73,20,8.05,CA,1712872064
121,el alto,-4.2714,-81.2147,82.06,73,87,10.47,PE,1712872145
122,fort bragg,35.139,-79.006,72.19,86,100,17.27,US,1712872117
123,qamdo,31.1667,97.2333,27.93,58,35,5.01,CN,1712872146
124,banda aceh,5.5577,95.3222,80.38,78,97,4.16,ID,1712872146
125,fale old settlement,-9.3852,-171.2468,85.19,76,23,8.52,TK,1712872146
126,longyearbyen,78.2186,15.6401,4.84,61,0,8.05,SJ,1712872147
127,maintirano,-18.0667,44.0167,81.12,81,100,13.06,MG,1712872147
128,kiunga,-6.1219,141.2906,73.85,100,100,0.87,PG,1712872148
129,san luis de la loma,17.2706,-100.8939,84.13,59,3,6.78,MX,1712872148
130,taikang,46.8333,124.4167,53.31,73,100,21.63,CN,1712872149
131,prainha,-1.8,-53.48,79.75,88,50,1.74,BR,1712872149
132,margaret river,-33.95,115.0667,52.83,88,5,11.74,AU,1712872150
133,murfreesboro,35.8456,-86.3903,56.57,91,100,13.8,US,1712872010
134,port elizabeth,-33.918,25.5701,59.09,80,20,10.36,ZA,1712872150
135,merizo village,13.2658,144.6691,81.16,90,100,13.85,GU,1712872151
136,praia da vitoria,38.7333,-27.0667,61.05,94,75,7.56,PT,1712872151
137,kavieng,-2.5744,150.7967,81.27,80,99,3.65,PG,1712872152
138,sawakin,19.1059,37.3321,76.44,60,35,9.33,SD,1712872152
139,kailua-kona,19.6406,-155.9956,82.6,78,100,5.75,US,1712872153
140,codrington,-38.2667,141.9667,57.02,66,98,6.33,AU,1712872154
141,warrnambool,-38.3833,142.4833,57.16,78,98,7.87,AU,1712872154
142,mar del plata,-38.0023,-57.5575,57.09,67,75,6.91,AR,1712872031
143,camana,-16.6228,-72.7111,71.6,84,54,7.25,PE,1712872155
144,chintamani,13.4,78.0667,73.74,86,0,11.74,IN,1712872156
145,lockwood,45.8191,-108.4149,64.42,31,75,4.61,US,1712872156
146,bardai,11.65,7.2333,84.2,10,96,9.44,NG,1712872156
147,vorgashor,67.5833,63.95,14.81,87,100,24.23,RU,1712872157
148,jindabyne,-36.4167,148.6333,43.57,90,0,1.01,AU,1712872158
149,hailar,49.2,119.7,41.61,87,100,7.36,CN,1712872159
150,nadym,65.5333,72.5167,6.96,73,100,29.73,RU,1712872159
151,presidente medici,-11.1753,-61.9014,79.25,91,68,0.25,BR,1712872160
152,arapgir,39.0412,38.4952,53.98,75,100,7.05,TR,1712872160
153,puerto armuelles,8.2833,-82.8667,91.38,71,98,3.0,PA,1712872064
154,kaiyuan,23.6977,103.3037,66.88,83,28,5.99,CN,1712872161
155,yarmouth,41.7057,-70.2286,59.47,90,100,5.75,US,1712872162
156,lhokseumawe,5.1801,97.1507,77.04,88,19,4.9,ID,1712872162
157,east london,-33.0153,27.9116,60.48,63,44,15.57,ZA,1712872163
158,ilha de mocambique,-15.0342,40.7358,81.46,81,74,13.35,MZ,1712872163
159,olonkinbyen,70.9221,-8.7187,16.83,88,100,15.19,SJ,1712872164
160,nguigmi,14.2495,13.1092,84.85,12,92,13.78,NE,1712872164
161,mandalay,21.9747,96.0836,83.57,25,0,1.45,MM,1712872018
162,hasaki,35.7333,140.8333,57.6,79,100,13.0,JP,1712872165
163,mildura,-34.2,142.15,53.76,70,3,7.99,AU,1712872165
164,yellowknife,62.456,-114.3525,40.41,71,40,12.66,CA,1712872166
165,kill devil hills,36.0307,-75.676,69.82,82,100,16.11,US,1712872088
166,kindu,-2.95,25.95,71.04,94,100,2.59,CD,1712872167
167,dombarovskiy,50.7587,59.5386,45.0,69,99,8.01,RU,1712872168
168,hecun,36.5333,114.1111,60.22,66,0,5.59,CN,1712872168
169,takoradi,4.8845,-1.7554,80.35,83,100,2.48,GH,1712872169
170,weiser,44.251,-116.9693,67.86,45,100,0.45,US,1712872169
171,christchurch,-43.5333,172.6333,52.32,94,100,19.57,NZ,1712871874
172,constantia,44.1833,28.65,59.7,59,16,6.42,RO,1712872170
173,tindouf,27.6711,-8.1474,84.65,10,0,4.61,DZ,1712872171
174,irymple,-34.25,142.1667,53.64,70,2,7.78,AU,1712872171
175,aasiaat,68.7098,-52.8699,21.38,91,99,4.34,GL,1712872172
176,yanbu,24.0891,38.0637,73.44,64,0,2.3,SA,1712872172
177,coquimbo,-29.9533,-71.3436,58.73,82,100,3.44,CL,1712872019
178,laguna,38.421,-121.4238,85.1,42,0,5.75,US,1712872173
179,iskateley,67.6803,53.1512,35.02,100,100,17.0,RU,1712872174
180,talnakh,69.4865,88.3972,-14.8,97,96,7.72,RU,1712872175
181,hastings,50.8552,0.5729,55.8,96,87,12.91,GB,1712872158
182,chernyshevskiy,63.0128,112.4714,-27.8,100,20,2.71,RU,1712872176
183,lompoc,34.6391,-120.4579,72.84,72,0,12.66,US,1712872176
184,san fernando de apure,7.8878,-67.4724,100.17,24,10,7.76,VE,1712871973
185,qaqortoq,60.7167,-46.0333,20.61,87,63,2.26,GL,1712872177
186,tres arroyos,-38.3739,-60.2798,53.78,54,91,8.9,AR,1712872178
187,mitu,1.1983,-70.1733,78.69,95,99,2.3,CO,1712872178
188,timimoun,29.2639,0.231,71.98,13,0,8.05,DZ,1712872179
189,alice,27.7523,-98.0697,89.04,18,0,11.5,US,1712872180
190,enewetak,11.3474,162.3373,80.6,79,94,21.61,MH,1712872180
191,caiuti-sat,46.1833,26.9333,58.84,79,20,7.14,RO,1712872181
192,klaksvik,62.2266,-6.589,45.52,92,100,26.71,FO,1712872181
193,guerrero negro,27.9769,-114.0611,75.04,39,66,11.54,MX,1712872182
194,severnoye,56.3491,78.3619,22.98,81,13,5.99,RU,1712872182
195,flin flon,54.7682,-101.865,40.84,70,100,11.5,CA,1712872182
196,crane,31.3974,-102.3501,79.75,14,0,11.95,US,1712872183
197,xinji,37.9028,115.2036,61.75,82,0,14.85,CN,1712872183
198,xai-xai,-25.0519,33.6442,69.62,73,71,12.71,MZ,1712872184
199,badger,64.8,-147.5333,43.36,50,75,6.91,US,1712872166
200,klyuchi,52.2667,79.1667,28.53,70,95,8.86,RU,1712872185
201,bouarfa,32.53,-1.95,54.81,26,1,20.38,MA,1712872185
202,chenzhou,25.8,113.0333,71.01,97,86,1.1,CN,1712872186
203,ende,-8.8432,121.6623,72.63,89,85,2.3,ID,1712872186
204,mersa matruh,31.3525,27.2453,61.0,82,75,5.75,EG,1712872186
205,lazaro cardenas,17.9583,-102.2,81.99,61,0,8.25,MX,1712872187
206,san andres,12.5847,-81.7006,87.82,66,20,13.8,CO,1712872188
207,kavaratti,10.5669,72.642,84.31,67,1,2.93,IN,1712872188
208,juba,4.8517,31.5825,81.41,59,33,4.9,SS,1712871900
209,eraan,9.0629,117.7016,76.91,86,66,6.11,PH,1712872189
210,sandnessjoen,66.0217,12.6316,35.71,80,40,1.14,NO,1712872190
211,gaspe,48.8334,-64.4819,41.22,75,100,4.61,CA,1712872190
212,sinop,41.7711,34.8709,49.46,91,33,3.33,TR,1712872191
213,yanam,16.7333,82.2167,76.71,84,36,2.95,IN,1712872191
214,hithadhoo,-0.6,73.0833,83.39,74,100,6.17,MV,1712872191
215,mejit,10.2753,170.8646,80.22,79,100,20.0,MH,1712872192
216,banganapalle,15.3167,78.2333,80.11,68,0,10.18,IN,1712872192
217,dickson,36.077,-87.3878,56.95,93,0,8.05,US,1712872055
218,santiago de cao,-7.9589,-79.2392,71.73,83,75,10.36,PE,1712872193
219,weyburn,49.6668,-103.8511,48.42,34,5,14.97,CA,1712872194
220,bel ombre,-4.6167,55.4167,78.64,89,20,4.61,SC,1712872194
221,taman',45.2117,36.7161,55.44,74,28,9.86,RU,1712872195
222,atafu village,-8.5421,-172.5159,85.1,76,47,7.49,TK,1712872195
223,pombas,17.1503,-25.0201,71.38,74,1,8.25,CV,1712872196
224,al bayda',32.7627,21.7551,53.28,68,100,8.97,LY,1712872196
225,minas de marcona,-15.2119,-75.1103,66.72,70,3,15.57,PE,1712872196
226,sandpoint,48.2766,-116.5533,61.86,41,0,4.61,US,1712872077
227,kapuskasing,49.4169,-82.4331,60.89,39,100,10.36,CA,1712872197
228,esfarayen,37.0765,57.5101,46.06,76,88,9.66,IR,1712872198
229,isangel,-19.55,169.2667,80.71,94,75,0.0,VU,1712872198
230,aktau,43.65,51.2,52.38,59,10,14.32,KZ,1712872199
231,uvalde,29.3669,-99.767,87.13,13,0,4.61,US,1712872142
232,launceston,-41.45,147.1667,46.15,93,76,5.75,AU,1712872181
233,conception bay south,47.4999,-52.9981,38.35,78,0,6.58,CA,1712871906
234,bolobo,-2.1667,16.2333,79.18,77,100,2.28,CD,1712872201
235,richfield,44.8833,-93.283,61.18,47,75,17.27,US,1712871916
236,nova sintra,14.8667,-24.7167,72.77,75,2,17.69,CV,1712872204
237,shira,54.4911,89.9531,25.83,85,100,3.53,RU,1712872206
238,callao,-12.0667,-77.15,79.09,65,0,11.5,PE,1712871996
239,qarazhal,48.0078,70.7903,32.29,79,4,12.5,KZ,1712872210
240,thinadhoo,0.5333,72.9333,83.34,73,99,1.3,MV,1712872211
241,banff,51.1762,-115.5698,49.23,31,100,5.75,CA,1712872186
242,mount pearl,47.5166,-52.7813,37.74,73,20,8.05,CA,1712872065
243,itamaraca,-7.7478,-34.8256,86.05,80,52,7.43,BR,1712872212
244,mount isa,-20.7333,139.5,60.57,44,0,3.44,AU,1712872213
245,udachny,66.4167,112.4,-18.54,100,100,4.61,RU,1712872213
246,flying fish cove,-10.4217,105.6791,80.28,83,75,9.22,CX,1712872214
247,college,64.8569,-147.8028,43.45,49,100,6.91,US,1712872214
248,fuli,46.7217,131.1394,52.32,68,5,6.69,CN,1712872215
249,mahina,-17.5065,-149.489,87.57,70,75,5.75,PF,1712872122
250,kyaukse,21.6,96.1333,82.17,26,0,3.67,MM,1712872216
251,scarborough,54.2797,-0.4044,60.37,87,100,13.0,GB,1712872216
252,keflavik,64.0049,-22.5624,40.91,87,75,14.97,IS,1712872217
253,fortuna,40.5982,-124.1573,55.65,79,20,16.11,US,1712872218
254,rabo de peixe,37.8,-25.5833,63.99,99,20,2.3,PT,1712872218
255,nouadhibou,20.931,-17.0347,67.98,83,0,6.91,MR,1712872219
256,swakopmund,-22.6833,14.5333,61.79,84,25,4.03,,1712872219
257,jwaneng,-24.6004,24.7303,63.03,56,0,11.43,BW,1712872220
258,la foa,-21.7108,165.8276,75.0,75,100,3.53,NC,1712872221
259,la'ie,21.6477,-157.9253,80.56,78,100,13.0,US,1712872222
260,heihe,50.2441,127.4902,45.45,66,97,8.25,CN,1712872101
261,smithers,54.7804,-127.1743,41.32,93,100,11.5,CA,1712872060
262,altai,46.3722,96.2583,32.45,63,44,14.85,MN,1712872224
263,badr hunayn,23.7829,38.7905,73.0,52,52,1.52,SA,1712872224
264,pakokku,21.3333,95.1,84.88,30,0,1.05,MM,1712872225
265,mweka,-4.85,21.5667,72.59,85,100,1.36,CD,1712872225
266,kish,26.5578,54.0194,79.07,73,20,6.91,IR,1712872226
267,newport,51.5877,-2.9984,58.08,93,100,13.42,GB,1712872226
268,lamu,-2.2717,40.902,83.08,85,61,10.27,KE,1712872227
269,aras-asan,8.8908,126.3033,76.42,88,99,3.53,PH,1712872227
270,mangrol,21.1167,70.1167,76.53,85,33,11.45,IN,1712872228
271,kerikeri,-35.2268,173.9474,68.92,90,58,7.05,NZ,1712872229
272,belvedere marittimo,39.6179,15.8617,55.11,78,100,2.44,IT,1712872229
273,gamba,-2.65,10.0,79.93,88,100,4.21,GA,1712872230
274,la passe,45.5549,-0.8967,57.43,93,40,7.29,FR,1712872230
275,alvorada,-12.48,-49.1247,76.5,88,92,3.98,BR,1712872231
276,mount gambier,-37.8333,140.7667,54.97,66,100,3.29,AU,1712872046
277,troitsko-pechorsk,62.7084,56.1964,38.7,99,100,14.0,RU,1712872232
278,howrah,22.5892,88.3103,78.8,65,40,4.61,IN,1712872232
279,sisimiut,66.9395,-53.6735,23.07,88,95,2.55,GL,1712872234
280,sinabang,2.4803,96.3801,79.61,85,98,3.58,ID,1712872234
281,jamestown,42.097,-79.2353,63.99,96,100,11.5,US,1712872186
282,vyazemskiy,47.5378,134.7525,48.92,76,44,2.57,RU,1712872235
283,whitehorse,60.7161,-135.0538,43.57,38,40,6.91,CA,1712872236
284,ancud,-41.8697,-73.8203,53.67,68,0,4.09,CL,1712872236
285,tazovsky,67.4667,78.7,-8.57,95,53,13.91,RU,1712872237
286,granja,-3.1203,-40.8261,75.7,98,99,3.38,BR,1712872237
287,broken hill,-31.95,141.4333,53.19,63,26,8.66,AU,1712872238
288,i-n-salah,27.1935,2.4607,73.42,21,0,17.58,DZ,1712872238
289,coari,-4.085,-63.1414,78.69,96,100,1.61,BR,1712872239
290,hammerfest,70.6634,23.6821,34.25,86,75,11.5,NO,1712872240
291,mhamid,29.82,-5.72,76.08,7,3,8.37,MA,1712872240
292,crucecita,-28.95,-58.9833,63.43,83,100,12.64,AR,1712872241
293,mandan,46.8267,-100.8896,55.38,40,75,20.71,US,1712872183
294,kaihua,23.3687,104.28,61.18,95,76,5.5,CN,1712872242
295,tabas,33.5959,56.9244,73.62,17,52,9.22,IR,1712872242
296,gohana,29.1333,76.7,78.55,18,24,5.26,IN,1712872243
297,saipan,15.1355,145.701,79.5,89,40,14.97,MP,1712872243
298,vernon,50.2581,-119.2691,60.6,39,100,3.44,CA,1712872226
299,mglin,53.0591,32.8475,47.93,65,25,6.35,RU,1712872244
300,rio grande,-32.035,-52.0986,68.11,61,100,15.14,BR,1712871946
301,poso,-1.3959,120.7524,76.37,92,100,6.91,ID,1712872246
302,fedorovskiy,45.0972,40.9517,57.0,68,100,8.46,RU,1712872246
303,tura,25.5198,90.2201,74.86,39,99,2.86,IN,1712872247
304,nuuk,64.1835,-51.7216,29.01,93,100,5.75,GL,1712871957
305,tommot,58.9564,126.2925,33.22,92,100,4.94,RU,1712872248
306,vorkuta,67.5,64.0,15.12,87,100,27.0,RU,1712872248
307,pariaman,-0.619,100.12,80.65,80,82,3.8,ID,1712872250
308,sakaiminato,35.55,133.2333,49.98,93,20,5.75,JP,1712872250
309,richards bay,-28.783,32.0377,64.65,68,86,12.73,ZA,1712872251
310,jumla,29.2747,82.1838,39.02,53,67,5.03,NP,1712872251
311,marka,1.7159,44.7717,84.36,76,32,9.89,SO,1712872252
312,valparaiso,-33.0393,-71.6273,64.63,69,75,9.22,CL,1712872252
313,al burayqah,30.4062,19.5739,64.51,67,100,8.28,LY,1712872253
314,hovd,48.0056,91.6419,40.82,48,97,2.73,MN,1712872253
315,axim,4.8699,-2.2405,80.51,80,100,1.97,GH,1712872254
316,kingston,17.997,-76.7936,86.95,71,20,23.02,JM,1712872256
317,teknaf,20.8624,92.3058,74.34,61,2,4.74,BD,1712872256
318,slave lake,55.2834,-114.769,58.98,17,0,16.11,CA,1712872065
319,pico truncado,-46.7949,-67.9573,54.3,28,0,9.42,AR,1712872173
320,glace bay,46.1969,-59.957,43.32,67,20,9.22,CA,1712872258
321,terbanggi besar,-4.8667,105.2333,75.54,96,100,3.4,ID,1712872258
322,lebu,-37.6167,-73.65,55.71,77,1,6.11,CL,1712872258
323,capo d'orlando,38.1435,14.7305,58.41,76,100,2.68,IT,1712872259
324,dudinka,69.4058,86.1778,-14.39,100,85,8.05,RU,1712872259
325,urzhar,47.093,81.6294,44.4,98,100,3.71,KZ,1712872260
326,chilecito,-29.1619,-67.4974,52.92,75,100,10.04,AR,1712872260
327,san kamphaeng,18.7449,99.1195,80.62,83,98,2.3,TH,1712872261
328,pisco,-13.7,-76.2167,78.85,65,0,12.66,PE,1712872261
329,kudahuvadhoo,2.6708,72.8944,84.7,69,30,3.04,MV,1712872262
330,cabedelo,-6.9811,-34.8339,84.87,80,100,10.07,BR,1712872262
331,selfoss,63.9331,-20.9971,38.05,98,100,6.8,IS,1712872262
332,kaga bandoro,6.9896,19.1874,86.85,43,95,4.7,CF,1712872263
333,san patricio,28.017,-97.5169,89.55,21,0,11.48,US,1712872263
334,haiku-pauwela,20.9219,-156.3051,80.22,68,20,15.99,US,1712872264
335,santa ana,33.7456,-117.8678,92.95,55,20,10.36,US,1712872163
336,kuta,-8.7233,115.1723,80.55,94,40,2.3,ID,1712872264
337,wailua homesteads,22.0669,-159.378,79.23,85,100,9.22,US,1712872265
338,pandan,14.0453,124.1694,77.92,89,93,7.78,PH,1712872265
339,pingdu,36.7844,119.9464,50.09,73,34,6.62,CN,1712872266
340,bengkulu,-3.8004,102.2655,76.42,95,100,4.83,ID,1712872266
341,nagyatad,46.2296,17.3579,55.49,75,58,6.46,HU,1712872267
342,xining,36.6167,101.7667,46.33,33,100,1.5,CN,1712872267
343,nago,26.5881,127.9761,68.85,80,100,1.52,JP,1712872268
344,shubarkuduk,49.1447,56.4872,47.91,66,90,5.3,KZ,1712872268
345,al wajh,26.2455,36.4525,73.35,49,0,3.44,SA,1712872268
346,parapat,2.663,98.9349,66.43,92,90,1.16,ID,1712872269
347,colonia,50.9333,6.95,58.28,81,100,1.14,DE,1712872269
348,ilhabela,-23.7781,-45.3581,75.49,90,89,2.86,BR,1712872269
349,zambezi,-13.5432,23.1047,65.62,86,66,4.41,ZM,1712872270
350,traralgon,-38.1833,146.5333,50.95,84,7,2.3,AU,1712872271
351,malango,-2.9627,119.9001,68.34,100,100,0.94,ID,1712872271
352,dryden,49.7833,-92.7503,52.09,50,75,10.36,CA,1712872272
353,polyarnyy,69.1989,33.4478,31.98,93,100,24.81,RU,1712872272
354,kuala tungkal,-0.8167,103.4667,76.28,94,93,3.33,ID,1712872273
355,masterton,-40.9597,175.6575,62.89,83,100,6.24,NZ,1712872274
356,nadezhda,44.1,44.6,52.95,67,75,1.52,RU,1712872274
357,chumphon,10.3333,98.8333,72.45,96,8,1.45,TH,1712872275
358,niafunke,15.9322,-3.9906,91.29,20,79,4.79,ML,1712872275
359,aripuana,-9.1667,-60.6333,78.15,95,100,1.81,BR,1712872276
360,kamaishi,39.2667,141.8833,50.77,86,100,5.17,JP,1712872277
361,vyritsa,59.4078,30.3481,48.56,80,100,14.41,RU,1712872277
362,cill airne,52.05,-9.5167,52.97,98,100,5.41,IE,1712872278
363,reyes,-14.3167,-67.3833,91.36,70,75,0.0,BO,1712872278
364,alaghsas,17.0187,8.0168,85.64,10,100,0.65,NE,1712872279
365,kodinsk,58.6881,99.1844,22.44,98,100,2.01,RU,1712872279
366,ta`u,-14.2336,-169.5144,84.25,78,5,9.93,AS,1712872271
367,mughal sarai,25.3,83.1167,78.87,41,2,7.58,IN,1712872280
368,ola,59.5833,151.2833,21.22,85,41,2.8,RU,1712872281
369,kismayo,-0.3582,42.5454,84.34,77,40,7.67,SO,1712872281
370,vilyuysk,63.7553,121.6247,-2.0,96,82,5.99,RU,1712872282
371,hami,42.8,93.45,56.79,37,1,8.43,CN,1712872282
372,shunyi,40.125,116.6453,57.15,88,70,4.47,CN,1712872283
373,nova vicosa,-17.8919,-39.3719,79.43,81,0,7.14,BR,1712872283
374,el sauzal de rodriguez,31.9,-116.6833,63.41,70,43,5.48,MX,1712872203
375,palikir - national government center,6.9248,158.1611,83.25,94,100,3.44,FM,1712872285
376,medina,24.4686,39.6142,81.03,12,0,3.44,SA,1712872285
377,bikenibeu village,1.3673,173.1241,85.96,74,40,4.61,KI,1712872286
378,togur,58.3631,82.8265,10.15,89,14,5.01,RU,1712872286
379,extrema,-22.8547,-46.3183,66.63,97,96,4.94,BR,1712872287
380,tamanrasset,22.785,5.5228,76.91,8,0,9.22,DZ,1712872287
381,sussex,41.1834,-74.6663,63.61,87,100,8.05,US,1712871998
382,ballito,-29.539,31.2144,59.14,72,20,6.91,ZA,1712872288
383,adrar,20.5022,-10.0711,87.51,12,0,10.45,MR,1712872288
384,lae,-6.7221,146.9847,77.67,90,99,5.17,PG,1712872289
385,sur,22.5667,59.5289,86.04,44,85,10.38,OM,1712872289
386,omagari,39.45,140.4833,51.94,77,100,2.93,JP,1712872290
387,holualoa,19.6228,-155.9522,78.87,80,100,5.75,US,1712872091
388,prince george,53.9166,-122.753,53.04,46,100,13.8,CA,1712872291
389,el granada,37.5027,-122.4694,87.93,72,0,18.41,US,1712872292
390,lawton,34.6087,-98.3903,72.1,24,0,14.97,US,1712872159
391,armacao de buzios,-22.7469,-41.8817,80.65,87,46,4.07,BR,1712872292
392,grootfontein,-19.5667,18.1167,58.57,72,85,0.0,,1712872293
393,hays,30.0502,-98.0336,83.37,28,0,9.33,US,1712872293
394,cidade velha,14.9167,-23.6167,72.07,73,0,12.66,CV,1712872294
395,buzuluk,52.7807,52.2635,56.97,69,100,7.0,RU,1712872294
396,posto fiscal rolim de moura,-13.0833,-62.2667,78.33,94,92,1.68,BR,1712872295
397,lichinga,-13.3128,35.2406,66.29,100,75,15.01,MZ,1712872295
398,pacocha,-17.5833,-71.3333,75.34,69,0,12.66,PE,1712872295
399,urumqi,43.801,87.6005,52.75,44,0,8.95,CN,1712872296
400,kingisepp,59.3733,28.6134,49.39,88,100,14.07,RU,1712872296
401,yangambi,0.8102,24.4336,75.63,77,99,2.17,CD,1712872297
402,labrador city,52.9463,-66.9114,40.91,65,75,8.05,CA,1712872297
403,trinidad,-14.8333,-64.9,82.38,94,75,3.44,BO,1712872298
404,prince rupert,54.3161,-130.3201,42.49,79,100,6.91,CA,1712872149
405,san nicolas de los arroyos,-33.3358,-60.2252,63.05,62,94,5.61,AR,1712872187
406,belfast,54.5833,-5.9333,57.02,95,100,16.11,GB,1712872299
407,westport,41.1415,-73.3579,61.09,91,100,3.0,US,1712872028
408,santa marta,11.2408,-74.199,96.85,55,20,16.11,CO,1712872294
409,andergrove,-21.0833,149.1833,69.64,79,50,11.52,AU,1712872301
410,pakxan,18.3778,103.6601,78.24,70,28,3.91,LA,1712872301
411,lindi,-10.0,39.7167,76.42,96,100,4.05,TZ,1712872301
412,ulladulla,-35.35,150.4667,59.72,75,62,2.24,AU,1712872302
413,mbekenyera,-10.0,38.9833,72.82,95,100,2.75,TZ,1712872302
414,kirakira,-10.4544,161.9205,84.25,70,100,3.33,SB,1712872303
415,vadso,70.0744,29.7487,34.68,80,75,16.11,NO,1712872303
416,cruzeiro do sul,-29.5128,-51.9853,66.52,92,100,7.11,BR,1712872304
417,rio san juan,19.6439,-70.0763,77.61,81,46,14.92,DO,1712872304
418,poltavka,54.3663,71.7632,29.93,90,56,2.13,RU,1712872304
419,krychaw,53.6945,31.7099,46.78,67,73,6.91,BY,1712872305
420,yicheng,31.3705,119.8703,58.86,99,96,5.23,CN,1712872305
421,dalandzadgad,43.5708,104.425,47.91,37,6,8.1,MN,1712872306
422,motueka,-41.1333,173.0167,65.1,95,91,7.29,NZ,1712872306
423,coaldale,49.7167,-112.6185,61.79,18,100,5.75,CA,1712872307
424,megion,61.0296,76.1136,6.82,90,93,10.8,RU,1712872307
425,okhotsk,59.3833,143.3,25.03,93,89,4.83,RU,1712872308
426,constitucion,-35.3333,-72.4167,56.82,80,14,2.17,CL,1712872308
427,tadine,-21.55,167.8833,74.84,78,100,8.1,NC,1712872308
428,viana do castelo,41.6932,-8.8329,63.1,76,100,6.38,PT,1712872309
429,carrizo springs,28.5219,-99.8606,89.55,12,0,10.36,US,1712872309
430,athagarh,20.5333,85.6167,73.4,46,85,3.8,IN,1712872310
431,castlegar,49.2998,-117.6689,59.99,51,100,2.82,CA,1712872310
432,langepas,61.2544,75.2124,7.95,88,100,12.41,RU,1712872311
433,tazacorte,28.629,-17.9293,72.57,53,75,9.22,ES,1712872311
434,lao cai,22.4833,103.95,75.06,89,97,0.16,VN,1712872311
435,arraial do cabo,-22.9661,-42.0278,78.76,83,40,5.75,BR,1712872312
436,saint-philippe,-21.3585,55.7679,78.39,85,54,4.76,RE,1712872312
437,kotka,60.4664,26.9458,42.33,98,100,20.02,FI,1712872313
438,kiffa,16.6166,-11.4045,97.38,13,95,11.14,MR,1712872313
439,rurrenabaque,-14.4413,-67.5278,91.09,84,75,0.0,BO,1712872314
440,wagar,16.1525,36.2032,80.08,39,48,14.83,SD,1712872314
441,oodweyne,9.4092,45.064,82.15,53,31,5.35,SO,1712872315
442,hilo,19.7297,-155.09,76.24,97,100,4.61,US,1712872315
443,tevriz,57.509,72.4042,23.04,86,50,7.23,RU,1712872316
444,yuzhno-kurilsk,44.0306,145.8556,40.37,76,100,8.28,RU,1712872285
445,luderitz,-26.6481,15.1594,71.56,46,0,4.47,,1712872317
446,sanctuary point,-35.1114,150.629,64.74,77,100,2.39,AU,1712872317
447,berryville,36.3648,-93.568,63.77,44,6,13.8,US,1712872318
448,badagry,6.4167,2.8833,81.19,80,87,10.89,NG,1712872318
449,gillette,44.2911,-105.5022,54.66,32,0,5.01,US,1712872318
450,cidreira,-30.1811,-50.2056,68.56,83,100,18.16,BR,1712872319
451,devoto,-31.4043,-62.3063,65.21,62,96,9.48,AR,1712872319
452,egilsstadir,65.2653,-14.3948,31.91,100,100,2.3,IS,1712872320
453,uyuni,-20.4597,-66.825,60.4,25,14,12.73,BO,1712872165
454,kwaksan,39.6875,125.0828,49.75,77,5,4.72,KP,1712872321
455,pangoa,-12.1167,-73.0,76.46,89,94,0.92,PE,1712872321
456,kalmunai,7.4167,81.8167,80.15,85,92,3.85,LK,1712872322
457,warsaw,52.2298,21.0118,57.94,60,0,4.61,PL,1712872206
458,kabalo,-6.05,26.9167,72.97,95,99,1.43,CD,1712872323
459,antonio enes,-16.2325,39.9086,78.58,87,80,11.39,MZ,1712872324
460,puerto colombia,10.9878,-74.9547,89.69,75,6,22.06,CO,1712872324
461,ceeldheer,3.8488,47.1806,82.81,75,49,10.78,SO,1712872324
462,azadshahr,34.7909,48.5707,41.49,87,40,6.91,IR,1712872325
463,akrehamn,59.2667,5.1833,44.85,87,100,13.8,NO,1712872326
464,cockburn town,21.4612,-71.1419,77.81,81,4,19.3,TC,1712872326
465,burang,30.25,81.1667,13.75,94,96,2.28,CN,1712872326
466,myeik,12.4333,98.6,80.78,88,63,3.24,MM,1712872327
467,suda,59.1525,37.5582,47.07,55,100,13.87,RU,1712872328
468,sao felix do xingu,-6.6447,-51.995,76.37,93,81,0.81,BR,1712872302
469,shitanjing,39.2342,106.3439,52.83,31,17,2.3,CN,1712872328
470,kolonia town,6.964,158.206,84.31,94,100,3.44,FM,1712872329
471,puerto yuca,2.9383,-73.2083,90.18,56,100,2.42,CO,1712872329
472,quartu sant'elena,39.2419,9.1839,59.29,60,75,3.44,IT,1712872330
473,robertsport,6.7533,-11.3686,80.47,89,100,4.14,LR,1712872330
474,labytnangi,66.6572,66.4183,14.38,86,100,15.46,RU,1712872331
475,volodarskiy,46.4013,48.5409,55.35,59,58,4.47,RU,1712872331
476,waiuku,-37.25,174.75,66.69,95,96,6.87,NZ,1712872332
477,berezovyy,51.6667,135.7,40.03,50,2,4.25,RU,1712872332
478,ceerigaabo,10.6162,47.368,69.28,52,8,7.9,SO,1712872332
479,el abiodh sidi cheikh,32.893,0.5484,55.49,37,0,18.9,DZ,1712872333
480,remire-montjoly,4.9167,-52.2667,84.24,79,40,9.22,GF,1712872063
481,okha,53.5739,142.9478,29.25,96,75,8.99,RU,1712872334
482,rawlins,41.7911,-107.2387,59.36,15,0,13.8,US,1712872335
483,brisas de zicatela,15.8369,-97.0419,84.2,72,89,8.88,MX,1712872335
484,igarka,67.4667,86.5833,-24.99,100,54,1.99,RU,1712872336
485,gebeit,21.0667,36.3167,67.53,47,9,4.45,SD,1712872336
486,orosei,40.3798,9.6929,53.38,73,61,6.8,IT,1712872362
487,rabaul,-4.1967,152.1721,80.6,80,100,3.44,PG,1712872363
488,northam,51.0333,-4.2167,52.61,96,70,15.08,GB,1712872363
489,port blair,11.6667,92.75,81.54,81,8,5.37,IN,1712872363
490,recani,31.2846,-4.2688,72.28,19,4,19.98,MA,1712872364
491,bonthe,7.5264,-12.505,79.59,81,100,5.95,SL,1712872364
492,khandyga,62.6667,135.6,23.16,90,99,6.53,RU,1712872365
493,nikolayevsk-on-amure,53.1406,140.73,32.22,96,88,4.0,RU,1712872311
494,beloyarskiy,63.7119,66.6722,23.0,74,100,8.99,RU,1712872366
495,patur,20.45,76.9333,80.47,50,26,2.19,IN,1712872366
496,deoband,29.7,77.6833,74.43,21,9,6.04,IN,1712872366
497,rupea,46.0333,25.2167,52.79,76,56,2.95,RO,1712872367
498,niquero,20.0431,-77.5828,85.71,61,7,10.87,CU,1712872367
499,ikalamavony,-21.15,46.5833,70.05,87,93,0.98,MG,1712872368
500,uvira,-3.4067,29.1458,73.94,80,64,2.19,CD,1712872368
501,port lincoln,-34.7333,135.8667,58.53,63,100,7.02,AU,1712872289
502,ocean shores,46.9737,-124.1563,53.29,85,100,7.0,US,1712872369
503,wenatchee,47.4235,-120.3103,64.78,45,0,8.05,US,1712872370
504,uturoa,-16.7333,-151.4333,84.42,75,46,16.46,PF,1712872310
505,marshall,34.3834,-86.3333,59.32,93,100,21.85,US,1712872371
506,lydenburg,-25.0978,30.4597,48.09,95,27,2.77,ZA,1712872372
507,diu,20.7141,70.9822,75.47,79,5,9.15,IN,1712872372
508,emerald,-23.5333,148.1667,64.35,48,0,10.87,AU,1712872371
509,daru,-9.0763,143.2092,80.26,84,100,17.11,PG,1712872373
510,geraldton,-28.7667,114.6,64.81,72,2,5.75,AU,1712872374
511,khairpur,27.5295,68.7617,82.4,16,53,3.42,PK,1712872374
512,loei,17.4167,101.5,77.14,57,42,1.97,TH,1712872375
513,canutama,-6.5339,-64.3831,77.49,93,99,2.62,BR,1712872375
514,sena madureira,-9.0656,-68.6569,77.74,92,95,5.08,BR,1712872365
515,tateyama,34.9833,139.8667,60.1,86,98,10.89,JP,1712872376
516,jayapura,-2.5333,140.7,76.39,89,81,2.19,ID,1712872376
517,obidos,-1.9175,-55.5181,80.35,90,58,1.23,BR,1712872377
518,isla mujeres,21.2311,-86.731,75.16,82,100,12.71,MX,1712872377
519,murun-kuren,49.6342,100.1625,32.22,99,95,4.43,MN,1712872378
520,puerto madryn,-42.7692,-65.0385,57.6,50,100,14.45,AR,1712872276
521,kristiansund,63.1115,7.732,48.85,76,75,23.02,NO,1712872378
522,zouerate,22.7187,-12.4521,89.2,7,0,12.06,MR,1712872379
523,dois vizinhos,-25.7336,-53.0572,74.68,60,100,3.49,BR,1712872380
524,punta del este,-34.9667,-54.95,62.71,70,20,9.22,UY,1712872248
525,puerto leguizamo,-0.1934,-74.7819,74.66,98,100,3.44,CO,1712872228
526,nizhneangarsk,55.7833,109.55,24.01,94,75,3.0,RU,1712872381
527,kidal,18.4411,1.4078,88.47,10,82,12.39,ML,1712872382
528,zaozersk,69.4005,32.4476,30.92,93,99,18.21,RU,1712872382
529,vrangel',42.7297,133.0839,42.46,93,30,6.2,RU,1712872383
530,nizhneudinsk,54.9076,99.0276,33.78,98,100,2.82,RU,1712872383
531,fort-shevchenko,44.5086,50.263,56.12,58,13,14.0,KZ,1712872384
532,tangalle,6.024,80.7911,78.96,84,97,10.29,LK,1712872385
533,znomenka,48.7128,32.6647,58.57,77,94,11.05,UA,1712872385
534,tolanaro,-25.0319,46.9987,73.47,88,40,4.61,MG,1712872287
535,juneau,58.3019,-134.4197,42.42,75,75,4.61,US,1712872175
536,campo formoso,-10.5075,-40.3214,74.26,87,80,5.48,BR,1712872386
537,isabela,6.7085,121.9711,78.85,83,70,2.26,PH,1712872387
538,porto novo,6.4965,2.6036,80.89,79,73,10.47,BJ,1712872320
539,nagqu,31.5,92.0,28.42,53,100,8.37,CN,1712872388
540,abashiri,44.0213,144.2697,45.68,62,100,8.41,JP,1712872388
541,chadron,42.8294,-102.9999,57.96,27,0,16.11,US,1712872389
542,guichon,-32.35,-57.2,59.94,75,8,9.8,UY,1712872389
543,antofagasta,-23.65,-70.4,69.08,88,94,8.08,CL,1712872228
544,brookings,44.3114,-96.7984,54.05,54,40,26.46,US,1712872091
545,conceicao da barra,-18.5933,-39.7322,77.11,87,20,5.55,BR,1712872390
546,south boston,42.3334,-71.0495,55.13,92,100,6.91,US,1712872391
547,boende,-0.2167,20.8667,78.75,78,99,1.43,CD,1712872392
548,kembe,4.6228,21.8865,77.77,53,48,2.21,CF,1712872392
549,salalah,17.0151,54.0924,82.49,74,40,4.61,OM,1712872360
550,arauca,7.0847,-70.7591,98.56,32,20,4.61,CO,1712872232
551,galliano,29.4422,-90.2992,73.99,40,40,14.97,US,1712872393
552,devarkonda,16.7,78.9333,77.68,77,20,11.9,IN,1712872394
553,batang,-6.4846,110.7083,78.44,88,100,4.43,ID,1712872394
554,reggane,26.7158,0.1714,78.06,17,0,16.71,DZ,1712872395
555,glenwood springs,39.5505,-107.3248,63.52,33,0,8.05,US,1712872395
556,soio,-6.1349,12.3689,80.58,83,100,10.87,AO,1712872396
557,estes park,40.3772,-105.5217,56.17,28,40,3.0,US,1712872315
558,north bend,43.4065,-124.2243,60.24,71,0,9.22,US,1712872396
559,zhob,31.3411,69.4481,66.49,41,49,1.25,PK,1712872397
560,eyl,7.9803,49.8164,82.31,85,100,8.41,SO,1712872394
561,freeport,40.6576,-73.5832,61.3,89,100,17.27,US,1712872137
562,beni mellal,32.3373,-6.3498,73.9,22,11,3.58,MA,1712872399
563,escanaba,45.7453,-87.0646,53.26,62,100,4.61,US,1712872399
564,jinghong,21.991,100.7341,70.09,41,25,2.44,CN,1712872400
565,benghazi,32.1167,20.0667,64.26,68,100,12.93,LY,1712872400
566,tamazula de gordiano,19.6333,-103.25,88.45,13,37,10.02,MX,1712872400
567,sitka,57.0531,-135.33,44.49,65,20,11.5,US,1712872401
568,nabire,-3.3667,135.4833,74.98,97,100,2.35,ID,1712872401
